,City,Cloudiness,Country,Date,Humidity,Lat,Lng,Max Temp,Wind Speed
0,Castro,1,BR,1587423018,62,-24.79,-50.01,56.46,2.62
1,Rexburg,31,US,1587423274,25,43.83,-111.79,63.0,5.82
2,Babu,91,CN,1587423275,85,24.42,111.52,67.57,5.61
3,Zeya,100,RU,1587423275,87,53.75,127.27,25.57,14.5
4,Arraial do Cabo,20,BR,1587423275,94,-22.97,-42.03,73.4,6.93
5,Torbay,75,CA,1587423032,64,47.67,-52.73,39.99,26.4
6,Kapaa,75,US,1587423018,69,22.08,-159.32,81.0,13.87
7,Carahue,49,CL,1587423276,62,-38.7,-73.17,59.0,11.41
8,Ushuaia,75,AR,1587423015,75,-54.8,-68.3,44.6,35.57
9,Oyama,75,JP,1587423277,81,36.3,139.8,63.0,1.12
10,Smithers,20,CA,1587422693,33,54.78,-127.17,62.6,5.82
11,Rikitea,24,PF,1587423020,71,-23.12,-134.97,77.13,9.42
12,Ostrovnoy,96,RU,1587423041,97,68.05,39.51,31.24,19.17
13,Ust'-Omchug,29,RU,1587423278,78,61.15,149.63,11.79,5.57
14,Mansôa,0,GW,1587423278,56,12.07,-15.32,75.51,6.87
15,Avarua,4,CK,1587423029,70,-21.21,-159.78,84.2,16.11
16,Mar del Plata,100,AR,1587423077,77,-38.0,-57.56,64.4,6.93
17,Atuona,2,PF,1587423265,72,-9.8,-139.03,82.62,11.23
18,Chumikan,100,RU,1587423279,93,54.72,135.31,23.61,12.73
19,Saskylakh,84,RU,1587423031,97,71.92,114.08,24.49,10.07
20,Adrar,0,MR,1587423031,16,20.5,-10.07,75.81,8.08
21,Nuevo Casas Grandes,43,MX,1587423280,11,30.42,-107.92,75.76,19.8
22,Katsuura,75,JP,1587423041,87,35.13,140.3,59.0,2.24
23,Lebu,29,CL,1587422884,73,-37.62,-73.65,55.51,15.32
24,Mayo,1,US,1587423281,71,38.89,-76.51,61.0,9.17
25,Tuktoyaktuk,90,CA,1587423022,78,69.45,-133.04,8.6,11.41
26,Bumba,25,CD,1587423282,82,2.18,22.47,72.05,0.45
27,Port Elizabeth,20,ZA,1587423282,82,-33.92,25.57,64.4,14.99
28,Chui,0,UY,1587423015,73,-33.7,-53.46,67.1,2.91
29,Bredasdorp,100,ZA,1587423029,63,-34.53,20.04,60.8,1.12
30,Constitución,42,CL,1587423057,56,-35.33,-72.42,60.82,9.71
31,Busselton,23,AU,1587422868,71,-33.65,115.33,60.01,11.05
32,Hilo,1,US,1587423024,54,19.73,-155.09,82.4,13.87
33,Tiksi,95,RU,1587423019,95,71.69,128.87,22.75,2.86
34,Menongue,71,AO,1587423017,61,-14.66,17.69,60.31,4.25
35,Puerto Ayora,40,EC,1587423285,70,-0.74,-90.35,84.2,16.11
36,Varkaus,94,FI,1587423285,86,62.32,27.87,41.0,5.82
37,Cape Town,75,ZA,1587423166,93,-33.93,18.42,60.01,3.36
38,Sabang,80,ID,1587423286,77,5.89,95.32,83.79,9.44
39,Punta Arenas,40,CL,1587423028,81,-53.15,-70.92,48.2,26.4
40,Batticaloa,35,LK,1587423286,80,7.71,81.69,80.69,2.71
41,Mollendo,69,PE,1587423287,75,-17.02,-72.01,67.84,4.14
42,Butaritari,95,KI,1587423015,78,3.07,172.79,82.62,13.69
43,Verkh-Usugli,97,RU,1587423287,66,52.7,115.17,20.7,14.05
44,Bonthe,100,SL,1587423065,84,7.53,-12.51,81.32,4.7
45,Kinshasa,75,CD,1587423200,83,-4.32,15.32,78.8,6.93
46,Bambous Virieux,40,MU,1587423288,83,-20.34,57.76,77.0,14.99
47,Nantucket,20,US,1587423288,65,41.28,-70.1,45.0,19.46
48,George Town,40,MY,1587422983,94,5.41,100.34,80.6,3.36
49,Talnakh,90,RU,1587423053,94,69.49,88.4,32.0,22.37
50,Kuril'sk,100,RU,1587423289,94,45.23,147.88,36.14,13.96
51,Hermanus,99,ZA,1587423017,99,-34.42,19.23,57.0,8.05
52,Vaini,75,TO,1587423018,78,-21.2,-175.2,82.4,10.29
53,Port-Gentil,20,GA,1587423021,94,-0.72,8.78,78.8,3.36
54,Mahébourg,40,MU,1587423031,83,-20.41,57.7,77.0,14.99
55,Qaanaaq,28,GL,1587423028,80,77.48,-69.36,6.48,5.75
56,Thompson,75,CA,1587423029,53,55.74,-97.86,21.2,13.87
57,Deputatsky,100,RU,1587423060,91,69.3,139.9,15.82,4.76
58,Saldanha,100,ZA,1587423014,82,-33.01,17.94,60.8,2.24
59,Saint Paul Harbor,90,US,1587422999,87,57.79,-152.41,44.6,10.29
60,Ancud,65,CL,1587423045,71,-41.87,-73.82,50.0,5.82
61,Cayenne,100,GF,1587423078,100,4.93,-52.33,73.4,4.5
62,Ilulissat,55,GL,1587423045,63,69.22,-51.1,30.2,5.82
63,Pevek,100,RU,1587423023,93,69.7,170.31,8.92,7.9
64,Sanbu,86,CN,1587423294,61,33.46,119.15,54.21,6.58
65,Rutland,1,US,1587423294,33,43.62,-73.02,46.99,9.17
66,East Hartford,1,US,1587423294,34,41.78,-72.61,54.0,8.05
67,Mūl,30,IN,1587423295,40,20.07,79.67,82.51,4.0
68,Lavrentiya,88,RU,1587423028,91,65.58,-171.0,18.82,7.11
69,Dublin,75,US,1587423246,55,37.7,-121.94,64.99,12.75
70,Doha,100,QA,1587423296,61,25.29,51.53,80.01,1.12
71,Sivas Province,100,TR,1587423296,53,39.79,37.0,48.43,1.66
72,Salinópolis,94,BR,1587423239,79,-0.61,-47.36,80.8,6.51
73,Goianésia,97,BR,1587423296,74,-15.32,-49.12,70.77,1.79
74,Mataura,93,NZ,1587423016,81,-46.19,168.86,53.01,4.0
75,Norman Wells,75,CA,1587423297,90,65.28,-126.83,32.0,5.82
76,Quiruvilca,70,PE,1587423297,34,-7.97,-78.2,40.5,2.06
77,Hobyo,99,SO,1587423298,74,5.35,48.53,83.8,10.16
78,Fortuna,68,US,1587423042,82,40.6,-124.16,55.99,1.99
79,Airai,68,TL,1587423028,63,-8.93,125.41,67.23,3.44
80,Barcelos,20,PT,1587423299,93,41.54,-8.62,53.6,3.78
81,Tonstad,0,NO,1587423299,74,58.66,6.72,45.0,5.28
82,Aquiraz,20,BR,1587423079,70,-3.9,-38.39,84.2,4.7
83,Phan Thiet,70,VN,1587423300,72,10.93,108.1,80.29,6.4
84,Tasiilaq,100,GL,1587423300,87,65.61,-37.64,33.8,4.7
85,São Filipe,2,CV,1587423300,77,14.9,-24.5,72.45,13.15
86,Fort Nelson,75,CA,1587423301,41,58.81,-122.7,66.2,9.15
87,Ballina,68,AU,1587422968,77,-28.87,153.57,66.99,5.82
88,Byron Bay,73,AU,1587423301,77,-28.65,153.62,66.99,5.82
89,Beisfjord,100,NO,1587423301,93,68.38,17.6,39.2,17.22
90,Payyanur,66,IN,1587423071,81,12.1,75.2,81.52,3.15
91,Upernavik,100,GL,1587423026,90,72.79,-56.15,28.81,3.02
92,Itarema,59,BR,1587423240,86,-2.92,-39.92,78.4,6.08
93,Hamilton,20,US,1587423303,27,39.18,-84.53,64.4,10.29
94,Sandwich,90,US,1587423303,58,41.65,-88.62,59.0,19.46
95,Albany,40,US,1587423008,25,42.6,-73.97,53.6,5.82
96,Osinki,100,RU,1587423304,84,52.84,49.51,49.87,10.29
97,Hobart,40,AU,1587422918,71,-42.88,147.33,55.0,6.93
98,Khatanga,100,RU,1587423037,96,71.97,102.5,27.36,4.59
99,Zhenlai,100,CN,1587423305,97,45.85,123.3,28.72,25.3
100,Fairbanks,90,US,1587422771,93,64.84,-147.72,44.01,3.36
101,Shakawe,61,BW,1587423305,38,-18.37,21.85,61.29,4.14
102,Yellowknife,90,CA,1587422784,57,62.46,-114.35,23.0,9.17
103,Bongor,58,TD,1587423306,40,10.28,15.37,82.2,5.93
104,Mtsamboro,20,YT,1587423306,78,-12.7,45.07,80.6,2.24
105,Alofi,40,NU,1587423036,69,-19.06,-169.92,82.4,11.41
106,Jurm,64,AF,1587423307,34,36.86,70.83,49.82,0.92
107,Morro Bay,1,US,1587423307,59,35.37,-120.85,64.99,14.99
108,Nanortalik,86,GL,1587423048,88,60.14,-45.24,31.37,3.89
109,Yamada,96,JP,1587423308,78,39.47,141.95,52.0,6.6
110,Ixtapa,5,MX,1587423078,73,20.7,-105.2,78.01,11.41
111,Vestmanna,0,FO,1587423028,93,62.16,-7.17,41.0,6.93
112,Galatas,40,GR,1587423308,88,37.5,23.45,66.0,3.36
113,El'brus,95,RU,1587423309,44,43.26,42.64,36.45,3.49
114,Bahía Blanca,48,AR,1587423055,59,-38.72,-62.27,56.59,9.35
115,Lorengau,13,PG,1587423069,67,-2.02,147.27,85.28,4.25
116,Robertsport,67,LR,1587423310,84,6.75,-11.37,80.56,5.86
117,New Norfolk,34,AU,1587423310,74,-42.78,147.06,55.0,1.01
118,Hambantota,48,LK,1587423263,81,6.12,81.12,80.64,9.19
119,Jamestown,1,US,1587423019,33,42.1,-79.24,48.0,11.41
120,Price,1,US,1587423047,23,39.6,-110.81,60.8,1.16
121,Makakilo City,1,US,1587423311,65,21.35,-158.09,80.6,9.17
122,Geraldton,2,AU,1587423052,87,-28.77,114.6,53.6,10.29
123,Moses Lake,1,US,1587423312,23,47.13,-119.28,73.4,4.7
124,Utete,92,TZ,1587423312,95,-7.99,38.76,73.13,2.66
125,Rabo de Peixe,20,PT,1587423313,67,37.8,-25.58,59.0,6.93
126,Bubaque,0,GW,1587423313,70,11.28,-15.83,78.62,14.88
127,Severo-Kuril'sk,80,RU,1587423038,91,50.68,156.12,32.94,3.98
128,Urussu,100,RU,1587423314,73,54.6,53.46,43.74,14.65
129,Salalah,75,OM,1587423061,74,17.02,54.09,82.4,8.05
130,El Tigre,52,VE,1587423314,40,8.89,-64.25,86.04,8.14
131,Cidreira,0,BR,1587423032,88,-30.18,-50.21,67.57,10.87
132,Ati,55,TD,1587423315,15,13.22,18.34,79.81,5.55
133,Lüderitz,3,NA,1587423274,77,-26.65,15.16,62.6,9.17
134,Halifax,90,CA,1587423017,45,44.65,-63.57,46.4,12.75
135,El Alto,94,PE,1587423316,69,-4.27,-81.21,74.1,12.15
136,Barrow,90,US,1587422850,91,71.29,-156.79,3.2,9.17
137,East London,72,ZA,1587423317,70,-33.02,27.91,70.36,11.7
138,Chardara,0,KZ,1587423317,47,41.25,67.97,61.74,5.91
139,San Juan,78,AR,1587423317,30,-31.54,-68.54,76.06,9.26
140,Port Alfred,45,ZA,1587423318,91,-33.59,26.89,64.99,3.0
141,Karratha,83,AU,1587423066,61,-20.74,116.85,83.43,7.05
142,Roebourne,93,AU,1587423318,57,-20.78,117.13,83.95,7.81
143,Biscarrosse,34,FR,1587423319,100,44.39,-1.17,50.0,1.12
144,Naze,75,JP,1587423319,72,28.37,129.48,68.0,5.82
145,Nikolskoye,90,RU,1587423021,80,59.7,30.79,42.01,4.47
146,Berdigestyakh,1,RU,1587423090,90,62.1,126.7,22.15,3.83
147,Viranşehir,44,TR,1587423307,53,37.24,39.76,56.71,3.74
148,Deltona,1,US,1587423320,39,28.9,-81.26,84.99,19.46
149,Coahuayana Viejo,20,MX,1587423321,65,18.73,-103.68,82.4,17.22
150,Talas,75,TR,1587423290,62,38.69,35.55,57.2,1.12
151,Salamiyah,3,SY,1587423084,54,35.01,37.05,62.83,1.63
152,Sitka,90,US,1587423060,93,57.05,-135.33,44.6,9.17
153,Dholka,0,IN,1587423322,54,22.72,72.47,84.2,3.36
154,San Miguel de Cozumel,75,MX,1587423322,59,20.51,-86.95,89.6,14.99
155,Beloha,0,MG,1587423052,77,-25.17,45.05,68.86,11.83
156,Narsaq,61,GL,1587423043,40,60.92,-46.05,33.8,5.82
157,Husavik,56,IS,1587423023,77,66.04,-17.34,42.21,14.0
158,Valparaíso,84,CL,1587423248,59,-33.04,-71.63,66.2,3.36
159,Dikson,100,RU,1587423018,98,73.51,80.55,30.31,23.2
160,Puerto Ayacucho,40,VE,1587423324,66,5.66,-67.62,84.2,3.36
161,Kibala,60,TD,1587423324,45,9.11,18.35,82.22,4.27
162,Nikki,59,BJ,1587423325,63,9.94,3.21,76.66,7.61
163,Trois-Rivières,1,CA,1587423325,34,46.35,-72.55,37.4,2.24
164,Damietta,72,EG,1587423325,88,31.42,31.81,64.4,13.87
165,Camacha,20,PT,1587423325,55,33.08,-16.33,60.8,18.34
166,Hasaki,75,JP,1587423025,100,35.73,140.83,54.0,2.24
167,Mariental,83,NA,1587423306,34,-24.63,17.97,71.91,4.83
168,Longyearbyen,20,SJ,1587423017,67,78.22,15.64,21.2,34.45
169,Mastic Beach,1,US,1587423127,61,40.77,-72.85,53.6,9.17
170,Auki,59,SB,1587423236,70,-8.77,160.7,84.67,5.97
171,São João da Barra,1,BR,1587423270,86,-21.64,-41.05,70.65,8.95
172,Artvin Province,75,TR,1587423328,87,41.17,41.83,55.4,17.22
173,Ponta do Sol,20,PT,1587423328,55,32.67,-17.1,62.6,4.7
174,Hervey Bay,3,AU,1587423328,74,-25.3,152.85,73.0,5.99
175,Murgab,0,TM,1587423329,63,37.5,61.97,62.6,6.93
176,Laguna,40,US,1587423329,49,38.42,-121.42,69.01,6.93
177,Bondoukou,5,CI,1587423329,67,8.03,-2.8,76.57,2.66
178,Avera,75,US,1587423075,64,33.19,-82.53,71.6,3.36
179,Boguchany,100,RU,1587423330,81,58.38,97.45,32.2,3.85
180,San Rafael,81,AR,1587423330,33,-34.62,-68.33,62.64,7.14
181,Vadsø,40,NO,1587423330,80,70.07,29.75,35.6,14.99
182,Bethel,1,US,1587422813,30,41.37,-73.41,55.0,2.84
183,Yelkhovka,40,RU,1587423331,81,53.87,50.28,44.6,13.42
184,Broome,1,US,1587423331,34,42.25,-75.83,51.01,5.82
185,Havøysund,75,NO,1587423015,80,71.0,24.66,39.2,41.38
186,Cherskiy,100,RU,1587423032,94,68.75,161.3,14.41,7.52
187,Yerbogachën,2,RU,1587423332,85,61.28,108.01,30.83,5.46
188,Dongli,75,CN,1587423333,94,23.57,116.82,71.6,6.71
189,Bengkulu,49,ID,1587422946,78,-3.8,102.27,78.85,4.47
190,Hornepayne,67,CA,1587423333,90,49.21,-84.77,28.65,9.35
191,Bluff,87,NZ,1587423019,81,-46.6,168.33,53.01,4.0
192,Roald,0,NO,1587423285,93,62.58,6.13,46.0,5.82
193,Virginia Beach,75,US,1587423143,81,36.85,-75.98,57.2,14.99
194,High Level,75,CA,1587423334,52,58.52,-117.14,44.6,9.17
195,Brae,0,GB,1587423335,93,60.4,-1.35,42.8,19.46
196,Kahului,40,US,1587423049,48,20.89,-156.47,84.2,12.75
197,Ahipara,100,NZ,1587423335,90,-35.17,173.17,64.02,2.89
198,Kisi,100,NG,1587423336,66,9.08,3.85,75.65,7.11
199,Conde,20,BR,1587423336,94,-7.26,-34.91,77.0,3.36
200,Avanigadda,57,IN,1587423336,90,16.02,80.92,77.56,5.7
201,Orta Nova,75,IT,1587423337,87,41.33,15.71,55.4,5.82
202,Magadan,0,RU,1587423337,83,59.57,150.8,16.9,3.8
203,Flinders,6,AU,1587423031,72,-34.58,150.86,66.99,1.99
204,Acajutla,40,SV,1587423338,48,13.59,-89.83,87.8,5.73
205,Abalak,99,RU,1587423338,91,58.13,68.59,39.4,6.15
206,Kaniama,100,CD,1587423338,75,-7.57,24.18,66.7,2.66
207,Suntar,91,RU,1587423339,93,62.14,117.63,29.07,4.18
208,Aldan,90,RU,1587423339,87,58.6,125.39,15.8,6.98
209,Paamiut,69,GL,1587423294,89,61.99,-49.67,27.54,7.0
210,Leningradskiy,1,RU,1587423020,90,69.38,178.42,13.78,10.07
211,San Jose,75,US,1587423063,52,37.34,-121.89,64.99,13.87
212,Tallahassee,40,US,1587423102,42,30.44,-84.28,80.6,6.93
213,Pirajuí,19,BR,1587423340,65,-22.0,-49.46,77.0,4.7
214,Sokone,0,SN,1587423341,26,13.88,-16.37,91.4,4.7
215,Bilibino,90,RU,1587423124,85,68.05,166.44,7.03,3.65
216,Chiplūn,67,IN,1587423341,58,17.53,73.52,79.7,1.61
217,Codrington,93,AU,1587423034,67,-38.27,141.97,58.64,18.43
218,Vila Velha,66,BR,1587423342,73,-20.33,-40.29,75.2,8.05
219,Saint-Pierre,75,RE,1587423272,73,-21.34,55.48,71.6,6.93
220,Oxford,8,GB,1587423050,70,51.75,-1.26,48.2,14.99
221,Nioro,0,GM,1587423343,25,13.35,-15.75,80.89,11.12
222,Puerto Wilches,68,CO,1587423343,83,7.35,-73.9,79.39,1.14
223,Sinnamary,100,GF,1587423295,86,5.38,-52.95,78.71,8.66
224,Middlebury (village),1,US,1587423344,33,44.02,-73.17,46.99,9.17
225,Toppenish,1,US,1587423171,29,46.38,-120.31,75.2,6.93
226,Aleksandrovskiy Zavod,100,RU,1587423345,78,50.92,117.94,18.48,21.5
227,Sherman,5,US,1587423099,60,33.64,-96.61,73.0,4.7
228,Lagoa,97,PT,1587423048,72,39.05,-27.98,60.1,20.49
229,Victoria Point,20,AU,1587423345,46,-27.58,153.3,72.0,9.17
230,Vostok,100,RU,1587423057,59,46.49,135.88,39.11,4.03
231,Solnechnyy,100,RU,1587423275,93,50.72,136.63,26.1,14.05
232,Caravelas,20,BR,1587423072,80,-17.71,-39.25,75.79,12.66
233,Laas,90,IT,1587423347,100,46.62,10.7,44.6,9.17
234,Dezhou,46,CN,1587423347,38,37.45,116.29,49.91,8.66
235,Dunedin,92,NZ,1587422769,60,-45.87,170.5,59.0,5.99
236,Tuatapere,99,NZ,1587423040,81,-46.13,167.68,53.01,4.0
237,Cabo San Lucas,5,MX,1587423348,37,22.89,-109.91,82.4,17.22
238,Yārāda,40,IN,1587423348,88,17.65,83.27,82.4,2.24
239,Lima,0,PE,1587422860,69,-12.04,-77.03,73.4,13.87
240,Saint George,1,US,1587423349,25,37.1,-113.58,73.4,3.36
241,Port Blair,2,IN,1587423130,72,11.67,92.75,83.5,4.59
242,Samarai,73,PG,1587423228,71,-10.62,150.67,84.27,10.2
243,Gazipur,75,BD,1587423350,83,24.0,90.42,77.0,3.36
244,Radishchevo,100,RU,1587423350,89,52.85,47.88,47.16,11.23
245,Lenoir,75,US,1587423350,67,35.23,-77.65,60.8,8.05
246,Los Llanos de Aridane,75,ES,1587423351,72,28.66,-17.92,68.0,20.8
247,La Palma,75,US,1587423351,49,33.85,-118.05,71.01,9.17
248,Yei,86,SS,1587423351,69,4.09,30.68,67.17,4.34
249,Mandalgovi,0,MN,1587423352,50,45.76,106.27,21.16,13.11
250,Goundam,10,ML,1587423352,13,16.41,-3.67,85.01,10.71
251,Porto-Novo,20,BJ,1587423352,79,6.5,2.6,84.2,9.17
252,Libenge,82,CD,1587423353,86,3.65,18.63,71.69,1.74
253,Faanui,95,PF,1587423079,78,-16.48,-151.75,81.82,17.65
254,Seydi,0,TM,1587423353,22,39.48,62.91,69.98,4.99
255,Bāndarban,45,BD,1587423353,85,22.2,92.23,70.99,2.24
256,Iquique,6,CL,1587423354,72,-20.22,-70.14,68.0,13.87
257,Rota,40,ES,1587423354,82,36.62,-6.36,59.0,10.29
258,San Andrés,20,CO,1587423354,66,12.58,-81.7,86.0,9.17
259,Kambove,32,CD,1587423250,65,-10.88,26.6,58.39,3.15
260,Raton,20,US,1587423355,25,36.9,-104.44,64.4,11.41
261,Galle,73,LK,1587423355,84,6.04,80.22,79.48,6.31
262,Flin Flon,20,CA,1587423356,38,54.77,-101.86,26.6,10.29
263,Mount Vernon,75,US,1587423356,32,40.91,-73.84,55.99,4.7
264,Morón,0,AR,1587423325,77,-34.65,-58.62,75.2,2.24
265,Grand Gaube,23,MU,1587423357,84,-20.01,57.66,75.0,8.01
266,Sinnai,75,IT,1587423357,100,39.3,9.2,61.0,3.36
267,Carnarvon,75,AU,1587423016,56,-24.87,113.63,68.0,13.87
268,Jiangyou,100,CN,1587423357,50,31.77,104.72,60.04,3.89
269,Río Blanco,68,MX,1587423358,37,18.83,-97.15,80.28,4.9
270,Praia,20,CV,1587423282,73,14.92,-23.51,71.6,18.34
271,Port Hardy,75,CA,1587423358,81,50.7,-127.42,51.8,10.29
272,Kavieng,71,PG,1587423239,68,-2.57,150.8,84.83,4.34
273,Kavaratti,99,IN,1587423056,69,10.57,72.64,84.99,4.85
274,Hong Kong,20,HK,1587422837,88,22.29,114.16,77.0,5.82
275,Nelson Bay,93,AU,1587423360,59,-32.72,152.15,64.99,9.17
276,La Ronge,75,CA,1587423360,42,55.1,-105.28,30.2,5.82
277,Hammelburg,0,DE,1587423360,51,50.12,9.9,50.0,1.99
278,Marsh Harbour,100,BS,1587423361,77,26.54,-77.06,81.77,21.94
279,Atasū,46,KZ,1587423361,39,48.68,71.64,51.96,9.78
280,Isla Mujeres,40,MX,1587423233,70,21.23,-86.73,86.0,21.92
281,Le Port,20,RE,1587423256,78,-20.94,55.29,75.2,12.75
282,Dumai,65,ID,1587423362,86,1.68,101.45,78.12,2.51
283,Paka,77,MY,1587423090,88,4.64,103.44,80.6,2.57
284,Hofn,87,IS,1587423330,84,64.25,-15.21,45.84,3.04
285,Loa Janan,47,ID,1587423363,76,-0.58,117.09,81.3,0.81
286,Manyana,10,BW,1587423363,27,-23.4,21.72,65.8,5.28
287,San Quintín,22,MX,1587423264,69,30.48,-115.95,63.27,23.06
288,Kalengwa,84,ZM,1587423364,68,-13.47,25.0,58.69,3.71
289,Ténenkou,73,ML,1587423364,25,14.46,-4.92,88.34,5.35
290,Bilma,1,NE,1587423264,13,18.69,12.92,81.9,3.44
291,Pangnirtung,90,CA,1587423265,92,66.15,-65.71,15.8,9.17
292,Esperance,11,AU,1587423049,87,-33.87,121.9,55.4,9.17
293,Darnah,28,LY,1587423025,52,32.77,22.64,66.63,14.07
294,Gayny,27,RU,1587423366,96,60.31,54.32,28.76,1.54
295,San Patricio,5,MX,1587423366,74,19.22,-104.7,86.0,17.22
296,Clyde River,75,CA,1587423366,77,70.47,-68.59,1.4,8.05
297,Guerrero Negro,82,MX,1587423367,66,27.98,-114.06,64.42,21.97
298,Pisco,0,PE,1587423086,73,-13.7,-76.22,71.6,19.46
299,Kongolo,94,CD,1587423367,80,-5.38,27.0,69.78,0.49
300,São José da Coroa Grande,12,BR,1587423125,83,-8.9,-35.15,80.06,9.42
301,Talāja,0,IN,1587423368,53,21.35,72.05,79.3,12.84
302,Reitz,17,ZA,1587423368,27,-27.8,28.43,54.7,2.59
303,Skaerbaek,0,DK,1587423368,75,55.16,8.77,45.0,5.82
304,Shāhābād,99,IN,1587423369,38,27.65,79.95,76.08,4.43
305,Shirokiy,100,RU,1587423369,79,49.76,129.52,35.53,14.56
306,Gilgit,71,PK,1587423369,25,35.92,74.31,50.27,1.88
307,Caçu,27,BR,1587423370,79,-18.56,-51.13,70.05,3.53
308,Savannah Bight,0,HN,1587423370,83,16.45,-85.85,81.81,20.74
309,Bathsheba,75,BB,1587423038,83,13.22,-59.52,78.8,5.82
310,Villa Vicente Guerrero,40,MX,1587423371,30,19.12,-98.17,82.4,23.04
311,Lodja,47,CD,1587423305,83,-3.48,23.43,69.03,0.85
312,Arrondissement de Morlaix,98,FR,1587423372,100,48.58,-4.0,50.0,5.82
313,Vardø,40,NO,1587423044,80,70.37,31.11,35.6,14.99
314,Mgachi,100,RU,1587423372,76,51.05,142.27,37.24,7.78
315,Vao,18,NC,1587423076,80,-22.67,167.48,76.14,13.94
316,Kiryat Gat,1,IL,1587423260,16,31.61,34.76,64.0,3.42
317,Quba,23,AZ,1587423373,42,41.36,48.52,55.53,8.1
318,Safi,63,MA,1587423121,67,32.3,-9.24,61.47,13.22
319,Lompoc,1,US,1587423072,59,34.64,-120.46,63.0,17.22
320,Goderich,81,CA,1587423374,48,43.75,-81.72,48.99,3.0
321,Beringovskiy,73,RU,1587423272,93,63.05,179.32,15.49,13.78
322,Palencia,100,ES,1587423375,88,42.42,-4.5,53.01,1.01
323,Athens,40,GR,1587423146,88,37.98,23.72,64.99,3.36
324,Chokurdakh,100,RU,1587423020,97,70.63,147.92,22.24,6.04
325,Kruisfontein,96,ZA,1587423026,76,-34.0,24.73,61.18,10.56
326,Turukhansk,100,RU,1587423376,97,65.82,87.98,34.0,9.19
327,Batagay,98,RU,1587423361,90,67.63,134.63,18.28,3.27
328,Waterloo,40,CA,1587423162,42,43.47,-80.52,46.99,14.99
329,Dandong,0,CN,1587423377,54,40.13,124.39,40.15,23.02
330,Saint-François,92,FR,1587423080,82,46.42,3.91,57.2,3.36
331,Nizhnevartovsk,100,RU,1587423120,56,60.93,76.55,42.8,8.95
332,Saint-Philippe,75,RE,1587423039,73,-21.36,55.77,71.6,6.93
333,Vanimo,100,PG,1587423076,74,-2.67,141.3,82.62,4.7
334,Alpoyeca,55,MX,1587423378,26,17.67,-98.52,88.68,8.88
335,Belaya Gora,100,RU,1587423379,95,68.53,146.42,19.85,8.39
336,Belogorsk,100,RU,1587423379,90,50.92,128.46,32.4,15.7
337,Manta,20,EC,1587423335,74,-0.95,-80.73,84.2,13.87
338,Marawi,27,PH,1587423379,63,8.0,124.29,77.4,0.92
339,Padang,35,ID,1587423157,72,-0.95,100.35,79.48,4.23
340,Ginda,53,IN,1587423235,24,30.69,78.49,48.0,6.91
341,Takoradze,15,GH,1587423380,81,4.88,-1.76,81.73,10.18
342,Pudozh,20,RU,1587423381,97,61.81,36.53,30.58,2.24
343,Vila Franca do Campo,20,PT,1587423381,67,37.72,-25.43,59.0,6.93
344,Souillac,40,MU,1587423015,83,-20.52,57.52,77.0,14.99
345,Pedernales,13,DO,1587423382,67,18.04,-71.74,78.96,7.2
346,Hithadhoo,73,MV,1587423067,70,-0.6,73.08,84.58,8.19
347,Nador,75,MA,1587423382,87,35.17,-2.93,57.2,18.34
348,Matara,67,LK,1587423382,87,5.95,80.54,77.29,5.5
349,Gurh,91,IN,1587423383,24,24.52,81.52,79.16,11.95
350,Swan Hill,0,AU,1587423383,44,-35.34,143.55,62.37,4.47
351,Coyhaique,20,CL,1587423383,70,-45.58,-72.07,44.6,3.36
352,Kayes,65,ML,1587423269,14,14.0,-11.0,92.34,8.77
353,Iqaluit,75,CA,1587423029,64,63.75,-68.51,1.4,12.75
354,Sokoni,40,TZ,1587423384,88,-6.43,39.55,77.0,5.82
355,Taku,0,CN,1587423385,38,39.02,117.65,41.0,6.71
356,Maniitsoq,54,GL,1587423230,83,65.42,-52.9,28.35,2.21
357,Alexandria,100,EG,1587423385,77,31.22,29.96,64.4,4.7
358,Fort-Shevchenko,69,KZ,1587423279,78,44.51,50.26,54.32,6.51
359,Palmer,75,US,1587423386,23,42.16,-72.33,54.0,6.93
360,Houma,1,US,1587423386,51,29.6,-90.72,81.0,6.93
361,Nova Olímpia,90,BR,1587423184,86,-14.8,-57.29,74.26,1.01
362,Zanjān,15,IR,1587423387,34,36.67,48.48,50.77,7.09
363,Kharp,88,RU,1587423387,97,66.8,65.81,29.48,5.32
364,Ribeira Grande,75,PT,1587423388,72,38.52,-28.7,62.6,20.8
365,Sunrise Manor,1,US,1587423388,22,36.21,-115.07,78.8,3.36
366,Fare,95,PF,1587423388,76,-16.7,-151.02,82.67,16.67
367,Mīnāb,75,IR,1587423388,73,27.15,57.08,77.0,4.7
368,Lākheri,81,IN,1587423389,36,25.67,76.17,76.69,3.2
369,Gornopravdinsk,100,RU,1587423389,87,60.05,69.9,40.01,5.14
370,Alta Floresta,98,BR,1587423389,90,-9.88,-56.09,72.27,0.89
371,Znamenskoye,100,RU,1587423390,76,57.13,73.83,50.9,8.48
372,Qaqortoq,76,GL,1587423390,40,60.72,-46.03,33.8,5.82
373,Rio Grande,0,BR,1587423139,82,-32.03,-52.1,68.0,7.34
374,Severnoye,93,RU,1587423391,82,56.35,78.36,49.48,8.55
375,Djibouti,90,DJ,1587423391,94,11.5,42.5,78.8,12.75
376,Salinas,75,US,1587423391,63,36.68,-121.66,60.8,11.41
377,Dakar,0,SN,1587423143,61,14.69,-17.44,78.8,11.41
378,Port Hedland,86,AU,1587423392,94,-20.32,118.57,77.0,5.82
379,Craigieburn,21,AU,1587423392,71,-37.6,144.95,55.0,12.75
380,Omboué,100,GA,1587423083,83,-1.57,9.26,77.43,4.03
381,Tena,75,EC,1587423393,52,-0.98,-77.82,87.8,3.36
382,Praia,20,CV,1587423393,73,14.92,-23.51,71.6,18.34
383,Abnūb,78,EG,1587423274,49,27.27,31.15,68.0,6.93
384,Rondonópolis,42,BR,1587423394,82,-16.47,-54.64,74.07,1.21
385,Tynda,98,RU,1587423394,76,55.17,124.72,21.88,14.72
386,Yeppoon,75,AU,1587423394,88,-23.13,150.73,73.4,5.82
387,Chubbuck,20,US,1587423395,22,42.92,-112.47,64.4,9.17
388,Jumla,92,NP,1587423395,30,29.27,82.18,44.44,1.68
389,Kirkenær,4,NO,1587423395,38,60.46,12.06,42.01,3.24
390,Union,1,US,1587423160,26,40.63,-74.27,57.2,1.16
391,Rawson,18,AR,1587423396,42,-43.3,-65.1,54.27,3.09
392,Garden City,75,US,1587423396,33,42.33,-83.33,57.2,20.8
393,Eresós,20,GR,1587423397,67,39.17,25.93,62.6,6.93
394,‘Ewa Beach,1,US,1587423397,65,21.32,-158.01,84.2,9.17
395,Tilichiki,71,RU,1587423245,92,60.47,166.1,19.42,9.91
396,Caranavi,8,BO,1587423398,51,-15.82,-67.55,65.32,2.37
397,Tateyama,70,JP,1587423261,100,34.98,139.87,59.0,1.48
398,Aswān,29,EG,1587423245,24,24.09,32.91,73.83,10.45
399,Torit,61,SS,1587423398,60,4.41,32.57,74.23,4.68
400,Tommot,57,RU,1587423399,87,58.96,126.29,23.09,3.04
401,Isangel,75,VU,1587423347,94,-19.55,169.27,78.8,3.36
402,Uglegorskiy,0,RU,1587423399,78,48.24,41.25,36.28,9.6
403,Coquimbo,75,CL,1587423019,87,-29.95,-71.34,60.8,6.93
404,Cururupu,81,BR,1587423044,89,-1.83,-44.87,77.81,4.41
405,Alegrete,0,BR,1587423400,52,-29.78,-55.79,68.27,5.06
406,Shimoda,62,JP,1587423248,90,34.67,138.95,60.01,1.01
407,Kumul,27,CN,1587423273,21,42.8,93.45,56.5,5.23
408,Basco,42,PH,1587423401,87,20.45,121.97,79.72,8.95
409,Bogovarovo,10,RU,1587423402,92,58.98,47.02,32.05,4.85
410,Itumbiara,4,BR,1587423402,75,-18.42,-49.22,71.26,4.29
411,Thinadhoo,86,MV,1587423066,74,0.53,72.93,84.31,7.61
412,Constantine,40,DZ,1587423383,71,36.37,6.61,57.2,13.87
413,Tabuk,100,PH,1587423403,74,17.42,121.44,80.69,4.65
414,Mareeba,61,AU,1587423069,84,-17.0,145.43,84.0,4.0
415,Shache,56,CN,1587423405,44,38.42,77.24,54.16,3.98
416,Poum,12,NC,1587423282,78,-20.23,164.02,78.3,13.69
417,Lyubim,0,RU,1587423405,91,58.36,40.68,32.76,7.49
418,Tsimmerbude,0,RU,1587423405,93,54.67,20.13,39.2,6.71
419,Graham,90,US,1587423377,93,47.05,-122.29,69.01,8.05
420,Krasnogorsk,0,RU,1587423282,74,55.82,37.32,35.6,8.95
421,Ōdachō-ōda,75,JP,1587423406,62,35.18,132.5,55.4,8.05
422,Walvis Bay,99,NA,1587423407,60,-22.96,14.51,71.6,9.17
423,Tautira,57,PF,1587423407,59,-17.73,-149.15,89.6,8.05
424,Santo Antônio do Sudoeste,0,BR,1587423407,64,-26.07,-53.73,62.29,2.39
425,Labuhan,37,ID,1587423056,81,-6.88,112.21,81.93,7.11
426,Chase,20,CA,1587423408,43,50.82,-119.69,73.4,5.82
427,Sola,83,VU,1587423408,73,-13.88,167.55,82.11,3.02
428,Abhā,20,SA,1587423409,67,18.22,42.51,60.8,5.82
429,Taber,20,CA,1587423409,24,49.82,-112.15,66.2,8.05
430,Basoko,48,CD,1587423409,81,1.24,23.62,70.97,1.48
431,Srednekolymsk,95,RU,1587423289,95,67.45,153.68,18.45,10.87
432,Grand-Lahou,12,CI,1587423410,85,5.14,-5.02,81.43,9.73
433,Wasilla,90,US,1587423363,81,61.58,-149.44,50.0,1.95
434,Santa Isabel Rio Negro,76,BR,1587423397,88,-0.41,-65.02,76.68,0.96
435,Yaan,56,NG,1587423065,70,7.38,8.57,80.37,11.68
436,Săuca,1,RO,1587423411,59,47.47,22.48,37.4,5.82
437,Luga,56,RU,1587423411,92,58.74,29.85,36.23,3.8
438,Dubbo,90,AU,1587423412,82,-32.25,148.62,57.2,2.24
439,Tessalit,0,ML,1587423412,14,20.2,1.01,79.52,12.5
440,Benguela,62,AO,1587423412,83,-12.58,13.41,78.6,3.56
441,Buala,64,SB,1587423017,74,-8.14,159.59,84.43,6.6
442,Domna,34,RU,1587423413,40,51.9,113.16,17.6,13.42
443,Pauini,100,BR,1587423393,92,-7.71,-66.98,74.77,2.48
444,Kaitangata,86,NZ,1587423048,70,-46.28,169.85,53.01,5.01
445,Porosozero,100,RU,1587423414,91,62.72,32.73,35.1,4.76
446,Yanam,50,IN,1587423414,84,16.73,82.22,79.29,5.84
447,Lukulu,98,ZM,1587423414,59,-14.37,23.24,62.02,3.78
448,Almaznyy,0,RU,1587423415,74,48.04,40.05,37.4,8.95
449,Kunashak,40,RU,1587423415,93,55.7,61.55,42.8,2.24
450,Richards Bay,1,ZA,1587423415,88,-28.78,32.04,70.41,11.97
451,Riyadh,90,SA,1587423045,82,24.69,46.72,64.4,5.82
452,Igrim,60,RU,1587423235,94,63.19,64.42,32.54,3.11
453,Alice Springs,84,AU,1587423416,43,-23.7,133.88,71.6,14.99
454,Ko Samui,20,TH,1587423417,79,9.54,99.94,84.2,3.36
455,Jalu,0,LY,1587423027,17,29.03,21.55,77.61,15.05
456,Morondava,0,MG,1587423417,69,-20.28,44.28,77.07,4.65
457,Sur,41,OM,1587423334,46,22.57,59.53,84.54,5.39
458,College,90,US,1587422947,86,64.86,-147.8,44.01,3.36
459,Kaliua,100,TZ,1587423418,70,-5.06,31.79,65.88,3.15
460,Mount Isa,0,AU,1587423418,22,-20.73,139.5,77.0,15.1
461,Lebowakgomo,0,ZA,1587423419,47,-24.2,29.5,59.0,1.12
462,Noumea,75,NC,1587423182,83,-22.28,166.46,77.0,5.82
463,Itabirito,75,BR,1587423419,64,-20.25,-43.8,71.6,9.17
464,Meadow Lake,40,US,1587423420,15,34.8,-106.54,73.99,13.87
465,Granville,20,AU,1587423420,56,-33.83,151.02,70.0,4.7
466,Natal,40,BR,1587423042,83,-5.79,-35.21,80.6,10.29
467,Rantepao,38,ID,1587423232,66,-2.97,119.9,72.93,0.54
468,Okitipupa,40,NG,1587423421,88,6.5,4.78,78.3,3.04
469,Nicoya,20,CR,1587423421,49,10.15,-85.45,89.6,14.99
470,San Luis,75,AR,1587423421,45,-33.3,-66.34,66.29,2.64
471,Kirakira,31,SB,1587423088,67,-10.45,161.92,85.78,3.47
472,Jalandhar,28,IN,1587423422,46,31.33,75.58,67.84,4.59
473,Katherine,36,AU,1587423423,65,-14.47,132.27,78.8,3.36
474,Gamba,100,GA,1587423246,87,-2.65,10.0,75.31,6.8
475,Mariehamn,0,AX,1587423423,80,60.1,19.93,39.2,4.7
476,Kang,2,BW,1587423424,29,-23.68,22.79,66.15,4.99
477,Kyustendil,100,BG,1587423424,85,42.28,22.69,50.0,5.01
478,Huarmey,4,PE,1587423424,74,-10.07,-78.15,72.23,7.85
479,Gurupi,42,BR,1587423424,84,-11.73,-49.07,73.92,3.44
480,Kulhudhuffushi,96,MV,1587423425,67,6.62,73.07,85.62,4.45
481,Rock Springs,40,US,1587423425,26,41.59,-109.2,55.4,9.17
482,Payakumbuh,58,ID,1587423425,76,-0.22,100.63,72.23,0.47
483,Matadi,99,CD,1587423305,89,-5.82,13.45,76.19,2.77
484,Christchurch,39,NZ,1587423082,54,-43.53,172.63,62.01,1.12
485,Santa Rosa,20,PH,1587423426,74,14.31,121.11,84.0,8.05
486,Shingū,75,JP,1587423038,63,33.73,135.98,60.8,10.29
487,Poronaysk,100,RU,1587423427,86,49.22,143.12,35.29,18.41
488,Havelock,75,US,1587423427,72,34.88,-76.9,60.8,14.99
489,Papar,20,MY,1587423428,88,5.73,115.93,78.8,4.7
490,Iskateley,99,RU,1587423428,98,67.68,53.15,29.59,16.84
491,Mehamn,40,NO,1587423428,69,71.04,27.85,39.2,26.4
492,Buin,62,CL,1587423428,22,-33.73,-70.75,80.6,0.98
493,Okhotsk,0,RU,1587423023,86,59.38,143.3,19.56,8.57
494,Whitianga,100,NZ,1587423429,96,-36.83,175.7,64.99,6.49
495,Provideniya,64,RU,1587423037,73,64.38,-173.3,21.2,8.95
496,Tanout,0,NE,1587423430,12,14.97,8.89,81.27,5.73
497,Soyo,77,AO,1587423430,86,-6.13,12.37,79.54,10.94
498,Margate,24,GB,1587423043,49,51.38,1.39,53.01,7.0
499,Gizo Government Station,92,SB,1587423431,65,-8.1,156.84,86.72,6.06
500,Eenhana,81,NA,1587423431,56,-17.47,16.33,73.4,5.82
501,Lázaro Cárdenas,3,MX,1587423431,72,17.96,-102.2,79.54,7.14
502,Maputo,6,MZ,1587423431,94,-25.97,32.59,69.8,3.36
503,Ascheberg,0,DE,1587423432,49,51.78,7.62,53.01,11.41
504,Ponta Delgada,20,PT,1587423273,67,37.73,-25.67,59.0,6.93
505,Maţāy,97,EG,1587423257,40,28.42,30.78,69.69,8.95
506,Mitsamiouli,41,KM,1587423079,68,-11.38,43.28,82.89,2.46
507,Henties Bay,74,NA,1587423433,83,-22.12,14.28,64.99,1.01
508,Zacualpan,5,MX,1587423433,35,21.25,-105.17,89.6,11.41
509,Dafeng,26,CN,1587423434,81,23.45,108.59,75.94,4.05
510,Canatlán,5,MX,1587423434,2,24.52,-104.78,87.8,8.05
511,Usinsk,93,RU,1587423434,97,65.99,57.53,30.27,12.28
512,Yangi Marg`ilon,2,UZ,1587423248,47,40.43,71.72,59.0,6.93
513,Manzanillo,18,CU,1587423283,61,20.34,-77.12,81.27,4.76
514,Taldan,100,RU,1587423061,85,53.67,124.8,23.72,11.63
515,Santo Antônio do Içá,97,BR,1587423435,93,-3.1,-67.94,74.61,1.5
516,Oddur,98,SO,1587423247,72,4.12,43.89,74.8,6.73
517,Ōhara,75,JP,1587423436,100,35.25,140.38,55.4,2.24
518,Chebsara,0,RU,1587423436,97,59.2,38.84,30.04,5.12
519,Angoche,7,MZ,1587423228,90,-16.23,39.91,73.69,9.71
520,Avallon,92,FR,1587423284,79,47.48,3.9,49.86,6.24
521,Egvekinot,27,RU,1587423288,89,66.32,-179.17,12.47,6.93
522,Fernley,87,US,1587423438,21,39.61,-119.25,63.0,1.01
523,Chunskiy,1,RU,1587423438,68,56.08,99.63,32.88,5.21
524,Gariāband,4,IN,1587423438,45,20.64,82.06,77.67,4.65
525,Atar,0,MR,1587423272,19,20.52,-13.05,71.94,9.78
526,Tahoua,62,NE,1587423439,28,14.89,5.27,95.0,4.7
527,Nome,90,US,1587423020,92,64.5,-165.41,33.01,5.82
528,Bátaszék,41,HU,1587423439,60,46.19,18.72,43.77,11.03
529,San Borja,4,BO,1587423440,74,-14.82,-66.85,74.32,0.83
530,Seymchan,95,RU,1587423440,82,62.88,152.43,16.02,3.13
531,Pacific Grove,75,US,1587423440,63,36.62,-121.92,60.8,11.41
532,Kärdla,35,EE,1587423441,90,59.0,22.75,39.99,3.0
533,Yaring,33,TH,1587423441,80,6.87,101.37,81.97,8.99
534,Manzhouli,100,CN,1587423441,79,49.6,117.43,21.25,25.41
535,Lata,35,PT,1587423260,90,40.16,-8.33,53.01,3.94
536,Adelaide,20,AU,1587423240,67,-34.93,138.6,60.01,11.41
537,São Miguel do Tapuio,83,BR,1587423442,85,-5.5,-41.32,74.01,4.09
538,Zhaoyuan,46,CN,1587423442,46,37.36,120.4,46.17,22.88
539,West Wendover,1,US,1587423443,27,40.74,-114.07,62.6,6.93
540,Qasigiannguit,26,GL,1587423042,63,68.82,-51.19,30.2,5.82
541,Port Lincoln,14,AU,1587423229,62,-34.73,135.87,66.61,23.06
542,Florø,0,NO,1587423444,75,61.6,5.03,46.4,8.05
543,Cockburn Town,0,TC,1587423419,80,21.46,-71.14,79.68,14.18
544,Road Town,1,VG,1587423444,65,18.42,-64.62,82.4,11.41
545,Magaria,35,NE,1587423445,14,13.0,8.91,83.5,4.7
546,Atikokan,94,CA,1587423445,75,48.76,-91.62,29.19,15.32
547,Moree,40,AU,1587423445,67,-29.47,149.85,59.0,6.93
548,Bokino,100,RU,1587423446,87,52.64,41.46,38.93,20.47
549,Elizabeth City,90,US,1587423153,82,36.29,-76.25,57.99,9.17
550,São Sebastião,19,BR,1587423446,75,-23.76,-45.41,70.92,5.21
551,Klaksvík,0,FO,1587423023,93,62.23,-6.59,41.0,6.93
552,Rovaniemi,32,FI,1587423447,59,66.5,25.72,35.6,5.82
553,Inongo,89,CD,1587423037,85,-1.95,18.27,71.92,1.07
554,Bambanglipuro,90,ID,1587423447,84,-7.95,110.28,80.02,7.38
555,Eyl,45,SO,1587423057,77,7.98,49.82,82.99,11.65
556,Noshiro,75,JP,1587423449,87,40.2,140.02,51.8,10.29
557,Bosaso,88,SO,1587423449,70,11.28,49.18,84.09,3.09
558,Calvià,100,ES,1587423450,87,39.57,2.51,61.0,8.05
559,Katangli,100,RU,1587423085,90,51.71,143.23,33.57,13.49
560,Kununurra,54,AU,1587423075,83,-15.77,128.73,77.0,0.87
561,Jobner,20,IN,1587423451,60,26.97,75.38,73.4,2.24
562,Ketchikan,90,US,1587423271,87,55.34,-131.65,46.4,17.22
563,Drumnadrochit,38,GB,1587423451,74,57.33,-4.48,45.0,1.12
564,Neuquén,54,AR,1587423452,39,-38.95,-68.06,64.4,2.24
565,Te Anau,91,NZ,1587423335,64,-45.42,167.72,52.88,3.56
566,Arman',0,RU,1587423452,81,59.7,150.17,17.98,1.54
567,Spornoye,0,RU,1587423453,80,50.84,37.29,35.6,13.42
568,Blairmore,1,CA,1587423453,29,49.6,-114.44,60.8,24.16
569,Birao,62,CF,1587423453,36,10.28,22.79,78.73,3.15
570,Asău,31,RO,1587423071,52,46.43,26.4,41.0,3.36
571,Oparino,39,RU,1587423454,88,59.85,48.28,32.5,2.84
572,Skibbereen,40,IE,1587423079,66,51.55,-9.27,48.2,10.29
573,Conceição do Araguaia,100,BR,1587423370,87,-8.26,-49.26,75.11,0.83
574,Ulladulla,20,AU,1587423289,67,-35.35,150.47,62.01,6.93
575,Ndioum,0,SN,1587423455,27,16.51,-14.65,86.0,2.24
576,Juneau,90,US,1587423293,81,58.3,-134.42,46.4,5.82
577,Karasjok,99,NO,1587423456,48,69.47,25.51,41.0,34.45
578,Cepu,57,ID,1587423456,87,-7.15,111.59,79.36,4.43
579,Imbituba,0,BR,1587423456,77,-28.24,-48.67,68.0,2.24
580,Kugul'ta,75,RU,1587423457,93,45.36,42.39,39.2,13.42
581,Urengoy,80,RU,1587423457,98,65.97,78.37,31.35,9.6
582,Novobirilyussy,1,RU,1587423457,75,56.95,90.67,34.75,5.46
583,Chazuta,2,PE,1587423458,54,-6.57,-76.14,75.29,1.57
584,Saint Anthony,40,US,1587423274,46,45.02,-93.22,55.4,25.28
585,Farīdnagar,40,IN,1587423458,64,28.77,77.62,71.6,2.13
586,Palu,13,ID,1587423459,69,-0.89,119.87,82.69,1.59
587,Pandan,98,PH,1587423046,80,14.05,124.17,82.69,9.44
